country,latitude,longitude,name,ms_rates_per_100000
AF,33.93911,67.709953,Afghanistan,NA
AL,41.153332,20.168331,Albania,30
DZ,28.033886,1.659626,Algeria,35
AS,-14.270972,-170.132217,American Samoa,NA
AD,42.546245,1.601554,Andorra,NA
AO,-11.202692,17.873887,Angola,NA
AI,18.220554,-63.068615,Anguilla,NA
AQ,-75.250973,-0.071389,Antarctica,NA
AG,17.060816,-61.796428,Antigua and Barbuda,NA
AR,-38.416097,-63.616672,Argentina,38
AM,40.069099,45.038189,Armenia,10
AW,12.52111,-69.968338,Aruba,NA
AU,-25.274398,133.775136,Australia,104
AT,47.516231,14.550072,Austria,153
AZ,40.143105,47.576927,Azerbaijan,NA
BS,25.03428,-77.39628,Bahamas,NA
BH,25.930414,50.637772,Bahrain,NA
BD,23.684994,90.356331,Bangladesh,NA
BB,13.193887,-59.543198,Barbados,NA
BY,53.709807,27.953389,Belarus,50
BE,50.503887,4.469936,Belgium,104
BZ,17.189877,-88.49765,Belize,NA
BJ,9.30769,2.315834,Benin,NA
BM,32.321384,-64.75737,Bermuda,NA
BT,27.514162,90.433601,Bhutan,NA
BO,-16.290154,-63.588653,Bolivia,NA
BA,43.915886,17.679076,Bosnia and Herzegovina,91
BW,-22.328474,24.684866,Botswana,NA
BV,-54.423199,3.413194,Bouvet Island,NA
BR,-14.235004,-51.92528,Brazil,19
IO,-6.343194,71.876519,British Indian Ocean Territory,NA
VG,18.420695,-64.639968,British Virgin Islands,NA
BN,4.535277,114.727669,Brunei,NA
BG,42.733883,25.48583,Bulgaria,NA
BF,12.238333,-1.561593,Burkina Faso,NA
BI,-3.373056,29.918886,Burundi,NA
KH,12.565679,104.990963,Cambodia,NA
CM,7.369722,12.354722,Cameroon,0
CA,56.130366,-106.346771,Canada,250
CV,16.002082,-24.013197,Cape Verde,NA
KY,19.513469,-80.566956,Cayman Islands,NA
CF,6.611111,20.939444,Central African Republic,NA
TD,15.454166,18.732207,Chad,NA
CL,-35.675147,-71.542969,Chile,14
CN,35.86166,104.195397,China,3
CX,-10.447525,105.690449,Christmas Island,NA
CC,-12.164165,96.870956,Cocos [Keeling] Islands,NA
CO,4.570868,-74.297333,Colombia,7
KM,-11.875001,43.872219,Comoros,NA
CD,-4.038333,21.758664,Congo [DRC],NA
CG,-0.228021,15.827659,Congo [Republic],NA
CK,-21.236736,-159.777671,Cook Islands,NA
CR,9.748917,-83.753428,Costa Rica,NA
CI,7.539989,-5.54708,Côte d'Ivoire,NA
HR,45.1,15.2,Croatia,144
CU,21.521757,-77.781167,Cuba,15
CY,35.126413,33.429859,Cyprus,151
CZ,49.817492,15.472962,Czech Republic,187
DK,56.26392,9.501785,Denmark,282
DJ,11.825138,42.590275,Djibouti,1
DM,15.414999,-61.370976,Dominica,NA
DO,18.735693,-70.162651,Dominican Republic,3
EC,-1.831239,-78.183406,Ecuador,4
EG,26.820553,30.802498,Egypt,59
SV,13.794185,-88.89653,El Salvador,NA
GQ,1.650801,10.267895,Equatorial Guinea,NA
ER,15.179384,39.782334,Eritrea,NA
EE,58.595272,25.013607,Estonia,113
ET,9.145,40.489673,Ethiopia,0
FK,-51.796253,-59.523613,Falkland Islands [Islas Malvinas],NA
FO,61.892635,-6.911806,Faroe Islands,NA
FJ,-16.578193,179.414413,Fiji,NA
FI,61.92411,25.748151,Finland,218
FR,46.227638,2.213749,France,155
GF,3.933889,-53.125782,French Guiana,NA
PF,-17.679742,-149.406843,French Polynesia,NA
TF,-49.280366,69.348557,French Southern Territories,NA
GA,-0.803689,11.609444,Gabon,NA
GM,13.443182,-15.310139,Gambia,NA
GZ,31.354676,34.308825,Gaza Strip,NA
GE,42.315407,43.356892,Georgia,30
DE,51.165691,10.451526,Germany,303
GH,7.946527,-1.023194,Ghana,1
GI,36.137741,-5.345374,Gibraltar,NA
GR,39.074208,21.824312,Greece,124
GL,71.706936,-42.604303,Greenland,NA
GD,12.262776,-61.604171,Grenada,NA
GP,16.995971,-62.067641,Guadeloupe,NA
GU,13.444304,144.793731,Guam,NA
GT,15.783471,-90.230759,Guatemala,3
GG,49.465691,-2.585278,Guernsey,NA
GN,9.945587,-9.696645,Guinea,NA
GW,11.803749,-15.180413,Guinea-Bissau,NA
GY,4.860416,-58.93018,Guyana,NA
HT,18.971187,-72.285215,Haiti,0
HM,-53.08181,73.504158,Heard Island and McDonald Islands,NA
HN,15.199999,-86.241905,Honduras,5
HK,22.396428,114.109497,Hong Kong,1
HU,47.162494,19.503304,Hungary,90
IS,64.963051,-19.020835,Iceland,212
IN,20.593684,78.96288,India,11
ID,-0.789275,113.921327,Indonesia,0
IR,32.427908,53.688046,Iran,90
IQ,33.223191,43.679291,Iraq,12
IE,53.41291,-8.24389,Ireland,193
IM,54.236107,-4.548056,Isle of Man,NA
IL,31.046051,34.851612,Israel,151
IT,41.87194,12.56738,Italy,208
JM,18.109581,-77.297508,Jamaica,NA
JP,36.204824,138.252924,Japan,4
JE,49.214439,-2.13125,Jersey,NA
JO,30.585164,36.238414,Jordan,NA
KZ,48.019573,66.923684,Kazakhstan,NA
KE,-0.023559,37.906193,Kenya,0
KI,-3.370417,-168.734039,Kiribati,NA
XK,42.602636,20.902977,Kosovo,53
KW,29.31166,47.481766,Kuwait,105
KG,41.20438,74.766098,Kyrgyzstan,6
LA,19.85627,102.495496,Laos,0
LV,56.879635,24.603189,Latvia,NA
LB,33.854721,35.862285,Lebanon,63
LS,-29.609988,28.233608,Lesotho,NA
LR,6.428055,-9.429499,Liberia,NA
LY,26.3351,17.228331,Libya,15
LI,47.166,9.555373,Liechtenstein,NA
LT,55.169438,23.881275,Lithuania,104
LU,49.815273,6.129583,Luxembourg,NA
MO,22.198745,113.543873,Macau,NA
MK,41.608635,21.745275,Macedonia [FYROM],NA
MG,-18.766947,46.869107,Madagascar,NA
MW,-13.254308,34.301525,Malawi,NA
MY,4.210484,101.975766,Malaysia,3
MV,3.202778,73.22068,Maldives,NA
ML,17.570692,-3.996166,Mali,NA
MT,35.937496,14.375416,Malta,91
MH,7.131474,171.184478,Marshall Islands,NA
MQ,14.641528,-61.024174,Martinique,NA
MR,21.00789,-10.940835,Mauritania,NA
MU,-20.348404,57.552152,Mauritius,NA
YT,-12.8275,45.166244,Mayotte,NA
MX,23.634501,-102.552784,Mexico,15
FM,7.425554,150.550812,Micronesia,NA
MD,47.411631,28.369885,Moldova,33
MC,43.750298,7.412841,Monaco,NA
MN,46.862496,103.846656,Mongolia,NA
ME,42.708678,19.37439,Montenegro,111
MS,16.742498,-62.187366,Montserrat,NA
MA,31.791702,-7.09262,Morocco,20
MZ,-18.665695,35.529562,Mozambique,NA
MM,21.913965,95.956223,Myanmar [Burma],NA
NA,-22.95764,18.49041,Namibia,2
NR,-0.522778,166.931503,Nauru,NA
NP,28.394857,84.124008,Nepal,NA
NL,52.132633,5.291266,Netherlands,150
AN,12.226079,-69.060087,Netherlands Antilles,NA
NC,-20.904305,165.618042,New Caledonia,NA
NZ,-40.900557,174.885971,New Zealand,72
NI,12.865416,-85.207229,Nicaragua,1
NE,17.607789,8.081666,Niger,NA
NG,9.081999,8.675277,Nigeria,1
NU,-19.054445,-169.867233,Niue,NA
NF,-29.040835,167.954712,Norfolk Island,NA
KP,40.339852,127.510093,North Korea,NA
MP,17.33083,145.38469,Northern Mariana Islands,NA
NO,60.472024,8.468946,Norway,NA
OM,21.512583,55.923255,Oman,16
PK,30.375321,69.345116,Pakistan,5
PW,7.51498,134.58252,Palau,NA
PS,31.952162,35.233154,Palestinian Territories,48
PA,8.537981,-80.782127,Panama,9
PG,-6.314993,143.95555,Papua New Guinea,NA
PY,-23.442503,-58.443832,Paraguay,NA
PE,-9.189967,-75.015152,Peru,8
PH,12.879721,121.774017,Philippines,NA
PN,-24.703615,-127.439308,Pitcairn Islands,NA
PL,51.919438,19.145136,Poland,120
PT,39.399872,-8.224454,Portugal,56
PR,18.220833,-66.590149,Puerto Rico,71
QA,25.354826,51.183884,Qatar,98
RE,-21.115141,55.536384,Réunion,NA
RO,45.943161,24.96676,Romania,35
RU,61.52401,105.318756,Russia,55
RW,-1.940278,29.873888,Rwanda,NA
SH,-24.143474,-10.030696,Saint Helena,NA
KN,17.357822,-62.782998,Saint Kitts and Nevis,NA
LC,13.909444,-60.978893,Saint Lucia,NA
PM,46.941936,-56.27111,Saint Pierre and Miquelon,NA
VC,12.984305,-61.287228,Saint Vincent and the Grenadines,NA
WS,-13.759029,-172.104629,Samoa,NA
SM,43.94236,12.457777,San Marino,337
ST,0.18636,6.613081,São Tomé and Príncipe,NA
SA,23.885942,45.079162,Saudi Arabia,41
SN,14.497401,-14.452362,Senegal,NA
RS,44.016521,21.005859,Serbia,136
SC,-4.679574,55.491977,Seychelles,NA
SL,8.460555,-11.779889,Sierra Leone,NA
SG,1.352083,103.819836,Singapore,5
SK,48.669026,19.699024,Slovakia,NA
SI,46.151241,14.995463,Slovenia,152
SB,-9.64571,160.156194,Solomon Islands,NA
SO,5.152149,46.199616,Somalia,NA
ZA,-30.559482,22.937506,South Africa,8
GS,-54.429579,-36.587909,South Georgia and the South Sandwich Islands,NA
KR,35.907757,127.766922,South Korea,NA
ES,40.463667,-3.74922,Spain,120
LK,7.873054,80.771797,Sri Lanka,9
SD,12.862807,30.217636,Sudan,0
SR,3.919305,-56.027783,Suriname,NA
SJ,77.553604,23.670272,Svalbard and Jan Mayen,NA
SZ,-26.522503,31.465866,Swaziland,NA
SE,60.128161,18.643501,Sweden,218
CH,46.818188,8.227512,Switzerland,180
SY,34.802075,38.996815,Syria,40
TW,23.69781,120.960515,Taiwan,5
TJ,38.861034,71.276093,Tajikistan,NA
TZ,-6.369028,34.888822,Tanzania,NA
TH,15.870032,100.992541,Thailand,2
TL,-8.874217,125.727539,Timor-Leste,NA
TG,8.619543,0.824782,Togo,NA
TK,-8.967363,-171.855881,Tokelau,NA
TO,-21.178986,-175.198242,Tonga,NA
TT,10.691803,-61.222503,Trinidad and Tobago,NA
TN,33.886917,9.537499,Tunisia,20
TR,38.963745,35.243322,Turkey,70
TM,38.969719,59.556278,Turkmenistan,NA
TC,21.694025,-71.797928,Turks and Caicos Islands,NA
TV,-7.109535,177.64933,Tuvalu,NA
UM,,,U.S. Minor Outlying Islands,NA
VI,18.335765,-64.896335,U.S. Virgin Islands,NA
UG,1.373333,32.290275,Uganda,NA
UA,48.379433,31.16558,Ukraine,48
AE,23.424076,53.847818,United Arab Emirates,7
GB,55.378051,-3.435973,United Kingdom,196
US,37.09024,-95.712891,United States,288
UY,-32.522779,-55.765835,Uruguay,21
UZ,41.377491,64.585262,Uzbekistan,NA
VU,-15.376706,166.959158,Vanuatu,NA
VA,41.902916,12.453389,Vatican City,NA
VE,6.42375,-66.58973,Venezuela,7
VN,14.058324,108.277199,Vietnam,NA
WF,-13.768752,-177.156097,Wallis and Futuna,NA
EH,24.215527,-12.885834,Western Sahara,NA
YE,15.552727,48.516388,Yemen,0
ZM,-13.133897,27.849332,Zambia,0
ZW,-19.015438,29.154857,Zimbabwe,NA